<?xml version="1.0" encoding="UTF-8"?>

<btrees>
    <entry num="1" tn="67">
        <cname>Scarlet Oak</cname>
        <sname>Quercus coccinea</sname>
        <treeType>D</treeType>
        <desc>" This tree is large with a rounded, open habit which eventually matures to 70' tall.
            Leaves are 3-6"" long and deeply cut with bristle-tipped, pointed lobes. Foliage is a
            glossy green in summer turning to scarlet in fall."</desc>
        <long>-79.988099</long>
        <lat>42.119949</lat>
        <elev>229.720596</elev>
    </entry>
    <entry num="2 (Multiple)" tn="9">
        <cname>Flowering Dogwood</cname>
        <sname>Cornus florida</sname>
        <treeType>D</treeType>
        <desc>"This tree is a multi-branched shrub or small tree, characterized by a rounded crown
            and horizontal branches that spread wider than its height. Typically 15' to 50' tall.
            Bark on mature trees is broken into small square blocks that give the stem an
            ÒalligatorÓ appearance."</desc>
        <long>-79.987285</long>
        <lat>42.119576</lat>
        <elev>259.431549</elev>
    </entry>
    <entry num="3" tn="4">
        <cname>Common Bald Cypress</cname>
        <sname>Taxodium distichum</sname>
        <treeType>D</treeType>
        <desc>This tree are long-lived and slow-growing. A mature tree develops a coarse
            wide-spreading head. It grows to about 100' tall. </desc>
        <long>-79.987384</long>
        <lat>42.119513</lat>
        <elev>262.819214</elev>
    </entry>
    <entry num="4" tn="5">
        <cname>Persian Ironwood</cname>
        <sname>Parrotia persica</sname>
        <treeType>D</treeType>
        <desc>"This tree is a small upright tree or large, rounded, multi-stemmed shrub. The oblong
            green leaves turn various shades of red, orange and yellow in the fall, often persisting
            into the winter months. "</desc>
        <long>-79.987288</long>
        <lat>42.119451</lat>
        <elev>264.589233</elev>
    </entry>
    <entry num="5 (Multiple)" tn="6">
        <cname>Norway Maple</cname>
        <sname>Acer plataNides</sname>
        <treeType>D</treeType>
        <desc>"This tree reaches a height of 40-50 ft. The leaves are dark green, simple, opposite,
            4Ó-7Ó wide with 5 lobes. The mature tree has a rounded crown of dense foliage and the
            bark is grayish-black and furrowed."</desc>
        <long>-79.987173</long>
        <lat>42.119418</lat>
        <elev>265.466858</elev>
    </entry>
    <entry num="6" tn="2">
        <cname>Eastern Hophornbeam</cname>
        <sname>Ostrya virginiana</sname>
        <treeType>D</treeType>
        <desc>"This tree grows 20 to 35 ft tall and is naturally found in dry, rocky forests. The
            leaves are alternate with a doubly toothed margin and fuzzy stem. The bark is smooth and
            reddish brown."</desc>
        <long>-79.987521</long>
        <lat>42.119155</lat>
        <elev>268.851074</elev>
    </entry>
    <entry num="7" tn="3">
        <cname>Kentucky Coffee Tree</cname>
        <sname>Gymnocladus dioicus</sname>
        <treeType>D</treeType>
        <desc>The Kentucky Coffee Tree grows to a height of 60Ð75' and produces clusters of
            greenish-white flowers that bloom at the same time leaves are maturing.</desc>
        <long>-79.987406</long>
        <lat>42.11918</lat>
        <elev>269.167969</elev>
    </entry>
    <entry num="8 (Multiple)" tn="N/A">
        <cname>Flowering Dogwood 2</cname>
        <sname>Cornus florida</sname>
        <treeType>D</treeType>
        <desc>"This is a multi-branched shrub or small tree, characterized by a rounded crown and
            horizontal branches that spread wider than its height. Typically ranges 15' to 50' tall.
            Bark on mature trees is broken into small square blocks that give the stem an
            ÒalligatorÓ appearance."</desc>
        <long>-79.987679</long>
        <lat>42.119139</lat>
        <elev>270.371613</elev>
    </entry>
    <entry num="9" tn="7">
        <cname>Red Maple</cname>
        <sname>Acer rubrum</sname>
        <treeType>D</treeType>
        <desc>"Red maples are fast-growing trees that usually reach 60-90'. Flowers, fruit, twigs
            and autumn leaves are red"</desc>
        <long>-79.987175</long>
        <lat>42.119287</lat>
        <elev>271.092651</elev>
    </entry>
    <entry num="10" tn="8">
        <cname>Accolade Elm</cname>
        <sname>U. davidiana var. japonica</sname>
        <treeType>D</treeType>
        <desc>" This elm is a vase shaped tree that typically grows to 50-60' tall and 25-40' wide.
            Glossy, ovate-elliptic, dark green leaves have toothed margins and asymetrical
            bases."</desc>
        <long>-79.987029</long>
        <lat>42.119338</lat>
        <elev>272.434479</elev>
    </entry>
    <entry num="11" tn="11">
        <cname>Purple Fountain Weeping Beech</cname>
        <sname>Fagus sylvatica</sname>
        <treeType>D</treeType>
        <desc>"This dark-leaved tree has bronze-purple, wavy margined leaves and cascading branches.
            Fall color is yellow, then orange-brown. Grows 15 to 30'."</desc>
        <long>-79.986325</long>
        <lat>42.119501</lat>
        <elev>274.710144</elev>
    </entry>
    <entry num="12" tn="N/A">
        <cname>Eastern Hemlock</cname>
        <sname>Tsuga canadensis</sname>
        <treeType>C</treeType>
        <desc>"This tree is one of the more shade-tolerant evergreens that resembles a large
            Christmas tree with its broadly pyramidal, pendulous branches and fine, dark-green
            needles on widely spaced branches. The tree has abundant brown cones that hang from
            branches."</desc>
        <long>-79.986389</long>
        <lat>42.119308</lat>
        <elev>276.676025</elev>
    </entry>
    <entry num="13 (Multiple)" tn="21">
        <cname>Kousa Dogwood</cname>
        <sname>Cornus kousa </sname>
        <treeType>D</treeType>
        <desc>"This is a flowering tree or multi-stemmed shrub that typically grows 15-30' tall,
            with a vase-shaped habit in the early years but eventually maturing to a more rounded
            form. Bloom occurs in late spring."</desc>
        <long>-79.985728</long>
        <lat>42.119567</lat>
        <elev>278.322174</elev>
    </entry>
    <entry num="14 (Multiple)" tn="20">
        <cname>Blue Spruce 2</cname>
        <sname>Picea pungens</sname>
        <treeType>C</treeType>
        <desc>"This is an anconical-shaped evergreen tree with stiff horizontal branches and short
            stiff needles. In nature, the needles are often green, but many specimens produce
            blue-green needles."</desc>
        <long>-79.985769</long>
        <lat>42.119507</lat>
        <elev>280.078003</elev>
    </entry>
    <entry num="16" tn="N/A">
        <cname>Fraser Fir</cname>
        <sname>Abies fraseri</sname>
        <treeType>C</treeType>
        <desc>This is a uniformly pyramid-shaped tree which reaches a maximum height of about 80'.
            Strong branches are turned slightly upward which gives the tree a compact
            appearance.</desc>
        <long>-79.986073</long>
        <lat>42.119682</lat>
        <elev>281.068756</elev>
    </entry>
    <entry num="17" tn="N/A">
        <cname>White Fringe </cname>
        <sname>Chionanthus virginicus</sname>
        <treeType>D</treeType>
        <desc>" This tree is characterized by its resplendent white flowers, which bloom in May or
            June. The tree also has small olive-like fruit, which develops in August or
            September."</desc>
        <long>-79.986211</long>
        <lat>42.11973</lat>
        <elev>280.841156</elev>
    </entry>
    <entry num="18" tn="14">
        <cname>White Pine</cname>
        <sname>Pinus strobus</sname>
        <treeType>C</treeType>
        <desc>"This tree can reach 150' in height and up to 40"" in diameter. Its evergreen needles
            are in clusters of 5, soft, flexible, 2 1/2 to 5 inches long, and bluish-green in
            appearance."</desc>
        <long>-79.986772</long>
        <lat>42.120002</lat>
        <elev>275.140442</elev>
    </entry>
    <entry num="19" tn="13">
        <cname>Norway Spruce</cname>
        <sname>Picea abies</sname>
        <treeType>C</treeType>
        <desc>"This is a large, pyramidal tree with long, cylindrical cones that hang like ornaments
            against the dark green foliage. Tends to be 50'-80' high "</desc>
        <long>-79.98692</long>
        <lat>42.119833</lat>
        <elev>276.915619</elev>
    </entry>
    <entry num="20" tn="12">
        <cname>Lost Franklinia</cname>
        <sname>Franklinia alatamaha</sname>
        <treeType>D</treeType>
        <desc>"This is a small tree or large shrub growing 15- 20' high and 10-15' feet wide. It has
            elongated, dark green leaves that turn red, orange, or pink in the fall."</desc>
        <long>-79.986614</long>
        <lat>42.119789</lat>
        <elev>278.654785</elev>
    </entry>
    <entry num="21" tn="15">
        <cname>Hackberry</cname>
        <sname>Celtis occidentalis</sname>
        <treeType>D</treeType>
        <desc>"This tree typically grows 40-60' tall with upright-arching branching and a rounded
            spreading crown. Fruit is like a hybrid between a nut and a berry. They are a versatile,
            power packed food. In general, they are sweet, tasty, and crunchy."</desc>
        <long>-79.986051</long>
        <lat>42.120416</lat>
        <elev>276.319336</elev>
    </entry>
    <entry num="22" tn="N/A">
        <cname>Dawn Redwood</cname>
        <sname>Metasequoia</sname>
        <treeType>D</treeType>
        <desc>"This tree producies small, round 1/2"" to 1"" cones. It has a pyramidal shape in
            youth, maturing into a more rounded crown. The bright green, feathery leaves turn
            orange-brown or reddish-brown in the fall"</desc>
        <long>-79.985357</long>
        <lat>42.120142</lat>
        <elev>282.309204</elev>
    </entry>
    <entry num="23" tn="N/A">
        <cname>Bald Cypress</cname>
        <sname>Taxodium distichum</sname>
        <treeType>D</treeType>
        <desc>"A young bald cypress is symmetrical and pyramidal. As it matures, it develops a
            coarse wide-spreading head. Its tapering trunk is usually 100' tall. They shed their
            needlelike leaves in the fall. Their fall colors are tan, brown, and fiery
            orange."</desc>
        <long>-79.984998</long>
        <lat>42.119958</lat>
        <elev>282.677338</elev>
    </entry>
    <entry num="24" tn="N/A">
        <cname>American Chestnut</cname>
        <sname>Fagaceae</sname>
        <treeType>D</treeType>
        <desc>This tree has long cane shaped leaves with hooked teeth at the edge of the leaf. The
            leaf is dull/ matte in texture. The tree reaches a height of 50'- 75'</desc>
        <long>-79.98538</long>
        <lat>42.119778</lat>
        <elev>285.832794</elev>
    </entry>
    <entry num="25" tn="23">
        <cname>Persimmon</cname>
        <sname>Diospyros kaki</sname>
        <treeType>D</treeType>
        <desc>"A small tree, growing up to 33' in height. The fruit is 1Ð2"" in diameter, usually
            rather flattened, and dark red to maroon in colour."</desc>
        <long>-79.985329</long>
        <lat>42.119719</lat>
        <elev>285.607849</elev>
    </entry>
    <entry num="26" tn="27">
        <cname>Ginkgo</cname>
        <sname>Ginkgo biloba</sname>
        <treeType>D</treeType>
        <desc>" This tree has somewhat leathery, fan-shaped, rich green leaves. Leaves turn bright
            yellow in fall. Tree grows 50'- 80' tall"</desc>
        <long>-79.985371</long>
        <lat>42.119338</lat>
        <elev>286.727661</elev>
    </entry>
    <entry num="27" tn="N/A">
        <cname> Black Gum</cname>
        <sname>Nyssa sylvatica</sname>
        <treeType>D</treeType>
        <desc>"This tree has summer leaves that are dark green with a high-gloss appearance, but the
            fall foliage turns many shades of yellow, orange, bright red, purple or scarlet that may
            appear on the same branch. Bark matures to medium gray and resembles alligator hide.
            Grows 30'-50' high."</desc>
        <long>-79.985041</long>
        <lat>42.119363</lat>
        <elev>287.784424</elev>
    </entry>
    <entry num="28" tn="36">
        <cname>Pecan</cname>
        <sname>Carya illiNinensis</sname>
        <treeType>D</treeType>
        <desc>This tree has a thick gray-brown trunk. The bark is ridged and has a scaly appearance.
            The twigs of the tree are red-brown in color and the foliage is dark green.</desc>
        <long>-79.985084</long>
        <lat>42.119186</lat>
        <elev>288.676575</elev>
    </entry>
    <entry num="29" tn="49">
        <cname>Nanking (Manchu) Cherry</cname>
        <sname>Prunus tomentosa</sname>
        <treeType>D</treeType>
        <desc>"This tree has fragrant white spring flowers, shiny reddish-brown bark, and edible
            scarlet fruit. It typically grows to a height of 6Ð10' and a spread about 15' at
            maturity."</desc>
        <long>-79.982753</long>
        <lat>42.119313</lat>
        <elev>296.294617</elev>
    </entry>
    <entry num="30 (Multiple)" tn="N/A">
        <cname>Norway Maple 2</cname>
        <sname>Acer platanoides</sname>
        <treeType>D</treeType>
        <desc>" This tree reaches a height of 40'-50'. The leaves are dark green, simple, opposite,
            4Ó-7Ó wide with 5 lobes. The mature tree has a rounded crown of dense foliage and the
            bark is grayish-black and furrowed."</desc>
        <long>-79.982076</long>
        <lat>42.119829</lat>
        <elev>295.261871</elev>
    </entry>
    <entry num="31" tn="51">
        <cname>Northern Red Oak</cname>
        <sname>Quercus rubra</sname>
        <treeType>D</treeType>
        <desc>" Mature trees have dark grey or brown bark with broad, shiny strips on the trunk's
            ridges. Its leaves are dark green on both sides, with seven to eleven sharp lobes.
            "</desc>
        <long>-79.98183</long>
        <lat>42.119779</lat>
        <elev>297.279053</elev>
    </entry>
    <entry num="32" tn="N/A">
        <cname>River's Purple Beech</cname>
        <sname>Fagus sylvatica ÔRiversiiÕ </sname>
        <treeType>D</treeType>
        <desc>This tree has the deepest purple foliage of any purple-leafed beech with richly
            colored foliage that retains its dark purple color throughout the summer months.ÊIt
            grows 40'-50'.</desc>
        <long>-79.981885</long>
        <lat>42.119908</lat>
        <elev>296.055573</elev>
    </entry>
    <entry num="33" tn="N/A">
        <cname>Wildfire Black Gum </cname>
        <sname>Nyssa sylvatica 'Wildfire'</sname>
        <treeType>D</treeType>
        <desc>Wildfire Black Gum has forest green foliage which emerges red in spring. The glossy
            pointy leaves turn an outstanding crimson in the fall. Tree reaches a height of 50'. </desc>
        <long>-79.981413</long>
        <lat>42.119842</lat>
        <elev>298.750519</elev>
    </entry>
    <entry num="34" tn="55">
        <cname>Bur Oak</cname>
        <sname>Quercus macrocarpa</sname>
        <treeType>D</treeType>
        <desc>"Bur Oak is a large, deciduous tree with a very wide, open crown. Usually wider than
            tall, the tree can exceed 100' in height and width. The massive trunk supports heavy,
            horizontal limbs and rough, deep-ridged bark."</desc>
        <long>-79.981284</long>
        <lat>42.120085</lat>
        <elev>297.005493</elev>
    </entry>
    <entry num="35" tn="32">
        <cname>American Sweetgum</cname>
        <sname>Liquidambar styraciflua</sname>
        <treeType>D</treeType>
        <desc>"This tree provides brilliant fall color, with leaves turning vibrant shades of
            yellow, orange, red and purple. Yields long-stemmed, woody, burr-like fruit that is
            approximately 1?"" in diameter. Grows in a pyramidal shape, becoming more oval or
            rounded with age."</desc>
        <long>-79.981235</long>
        <lat>42.120677</lat>
        <elev>292.983551</elev>
    </entry>
    <entry num="36" tn="N/A">
        <cname>Japanese Stewartia</cname>
        <sname>Stewartia pseudocamellia</sname>
        <treeType>D</treeType>
        <desc>"This tree is a small, slow-growing, pyramidal, deciduous tree native to the mountains
            of Japan and the Korean peninsula. Specimens in the wild can reach 50-60' tall, but in
            cultivation typically mature over time to 20-40' tall."</desc>
        <long>-79.982006</long>
        <lat>42.120776</lat>
        <elev>291.299744</elev>
    </entry>
    <entry num="37" tn="57">
        <cname>Loblolly Pine</cname>
        <sname>Pinus taeda</sname>
        <treeType>C</treeType>
        <desc>"This tree is a large evergreen tree that reaches heights of 130'. It has ascending
            limbs, and a rounded, spreading crown. "</desc>
        <long>-79.982299</long>
        <lat>42.120584</lat>
        <elev>292.37326</elev>
    </entry>
    <entry num="38" tn="58">
        <cname>Prairiefire Flowering Crabapple</cname>
        <sname>Malus 'Prairifire'</sname>
        <treeType>D</treeType>
        <desc>"This tree grows 15- 20 ft. The blooms are followed by an intense maroon foliage that
            matures to a reddish green then turns red, orange, and purple in the fall. The glossy,
            persistent red fruit are an excellent food source for birds "</desc>
        <long>-79.982486</long>
        <lat>42.120562</lat>
        <elev>292.211334</elev>
    </entry>
    <entry num="39" tn="60">
        <cname>Black Walnut</cname>
        <sname>Juglans nigra</sname>
        <treeType>D</treeType>
        <desc>"This tree grows 70-80' in height and attain diameters of 2 to 4'. Mature trees have a
            deeply furrowed gray- brown to nearly black bark. The brown to orange- brown twigs are
            stout, with large, shield shaped, conspicuous leaf scars"</desc>
        <long>-79.982613</long>
        <lat>42.120575</lat>
        <elev>292.582489</elev>
    </entry>
    <entry num="40" tn="59">
        <cname>Snowdrift Crabapple</cname>
        <sname>Malus 'Snowdrift'</sname>
        <treeType>D</treeType>
        <desc>"This tree is a rounded, deciduous tree which typically grows 15-20' tall with a
            similar spread. Red buds open to slightly fragrant, single white flowers in spring.
            Flowers are followed by masses of small, orange-red crabapples"</desc>
        <long>-79.98261</long>
        <lat>42.120744</lat>
        <elev>290.729004</elev>
    </entry>
    <entry num="41" tn="61">
        <cname>Yellow Buckeye</cname>
        <sname>Aesculus flava</sname>
        <treeType>D</treeType>
        <desc>"The Yellow Buckeye has thick bark, yellow spring blooms, and striking orange fall
            color. It grows 60-75' tall. This tree actually gets its name from the whitish scar
            found on each brown seed. It is said to give the seed the appearance of a deer's
            eye."</desc>
        <long>-79.982687</long>
        <lat>42.120859</lat>
        <elev>289.26947</elev>
    </entry>
    <entry num="42 (Multiple)" tn="N/A">
        <cname>Flowering Dogwood 3</cname>
        <sname>Cornus florida</sname>
        <treeType>D</treeType>
        <desc>"This is a multi-branched shrub or small tree, characterized by a rounded crown and
            horizontal branches that spread wider than its height. Typically ranges 15'-50' tall.
            Bark on mature trees is broken into small square blocks that give the stem an
            ÒalligatorÓ appearance."</desc>
        <long>-79.982816</long>
        <lat>42.121011</lat>
        <elev>288.543152</elev>
    </entry>
    <entry num="45" tn="37">
        <cname>Eastern Redbud</cname>
        <sname>Cercis canadensis</sname>
        <treeType>D</treeType>
        <desc>"Trees typically grow 20' in height with a similar spread and have ascending branches
            and a rounded shape. Leaves are alternate, simple, broadly heart-shaped and 3 to 5""
            high and wide. Leaves emerge reddish, turning green as they expand."</desc>
        <long>-79.982663</long>
        <lat>42.120598</lat>
        <elev>293.676239</elev>
    </entry>
    <entry num="46" tn="16">
        <cname>Pin Oak </cname>
        <sname>Quercus palustris</sname>
        <treeType>D</treeType>
        <desc>"This tree features glossy, dark green leaves that are 3Ð6"" long with 5 lobes. Yields
            acorns that are nearly round and ?"" long . It grows 70'-90' tall with diameters between
            2' and 3'."</desc>
        <long>-79.983189</long>
        <lat>42.12067</lat>
        <elev>292.449951</elev>
    </entry>
    <entry num="47" tn="62">
        <cname>Copper Beech</cname>
        <sname>Fagus sylvatica</sname>
        <treeType>D</treeType>
        <desc>"This tree takes on a dense, oval to pyramidal shape. Generally grows to heights of 50
            to 75' with a width of 40 to 60'."</desc>
        <long>-79.983076</long>
        <lat>42.120943</lat>
        <elev>289.63092</elev>
    </entry>
    <entry num="48" tn="19">
        <cname>American Holly</cname>
        <sname>Ilex opaca</sname>
        <treeType>D</treeType>
        <desc>"This tree features leathery leaves that are 2Ð4"" long, maintain their green color
            year-round, and are sharply tipped on the margins. Yields red, berry-like fruit. Average
            of 50' tall"</desc>
        <long>-79.985795</long>
        <lat>42.119701</lat>
        <elev>313.807617</elev>
    </entry>
    <entry num="49" tn="25">
        <cname>Sourwood</cname>
        <sname>Oxydendrum arboreum</sname>
        <treeType>D</treeType>
        <desc>This tree has a rounded top and drooping branches. Tree typically grow up to 30' in
            height and 20' in spread.</desc>
        <long>-79.986082</long>
        <lat>42.119233</lat>
        <elev>313.320129</elev>
    </entry>
    <entry num="50" tn="35">
        <cname>Littleleaf Linden</cname>
        <sname>Tilia cordata</sname>
        <treeType>D</treeType>
        <desc>"This tree features heart-shaped leaves that are lopsided at the base, usually 2Ð3""
            long. Leaf color shifts from light green to glossy dark green to yellow throughout the
            seasons. Yields nutlike fruit."</desc>
        <long>-79.98566</long>
        <lat>42.119015</lat>
        <elev>314.669708</elev>
    </entry>
    <entry num="51" tn="38">
        <cname>Sugar Maple</cname>
        <sname>Acer saccharum</sname>
        <treeType>D</treeType>
        <desc>"This tree has medium to dark-green leaves that turn yellow, burnt orange, and red in
            the fall. This tree grows 60' to 75' and spreads 40' to 50'."</desc>
        <long>-79.985581</long>
        <lat>42.118791</lat>
        <elev>314.353027</elev>
    </entry>
    <entry num="52" tn="42">
        <cname>English Oak</cname>
        <sname>Quercus robur</sname>
        <treeType>D</treeType>
        <desc>This tree has broad leaves and are considered one of the best shade trees. They
            produce fruit in the form of acorns. They reach a mature height of 50 to 70'.</desc>
        <long>-79.985559</long>
        <lat>42.11839</lat>
        <elev>319.891327</elev>
    </entry>
    <entry num="54" tn="43">
        <cname>Western Tamarack (Larch)</cname>
        <sname>Larix occidentalis</sname>
        <treeType>D</treeType>
        <desc>"This tree is tall with trunks that grow very straight. Average height is 100'. The
            bark of young trees is gray and smooth, becoming reddish brown and scaly with
            age."</desc>
        <long>-79.9854</long>
        <lat>42.118286</lat>
        <elev>321.624359</elev>
    </entry>
    <entry num="55" tn="47">
        <cname>Chestnut Oak</cname>
        <sname>Quercus prinus</sname>
        <treeType>D</treeType>
        <desc>"This tree is readily identified by its massively-ridged dark gray-brown bark. It
            grows 50 to 60' tall. The leaves are 4 to 6"" long. Fall color varies from red to orange
            to yellow-brown."</desc>
        <long>-79.98442</long>
        <lat>42.116866</lat>
        <elev>336.185883</elev>
    </entry>
    <entry num="56" tn="46">
        <cname>Tulip Tree</cname>
        <sname>Liriodendron tulipifera</sname>
        <treeType>D</treeType>
        <desc>"This tree typically grows 60-90' tall. The bark on its large trunk is colored light
            grayish brown. The leaves are 3-8"" long and are glossy green above with a pale green
            underside, changing to golden yellow in the fall."</desc>
        <long>-79.984504</long>
        <lat>42.116892</lat>
        <elev>336.219574</elev>
    </entry>
    <entry num="57" tn="44">
        <cname>Plains Cottonwood</cname>
        <sname>Populus deltoides</sname>
        <treeType>D</treeType>
        <desc>This tree may range from 70-130' in height and 4-7' in diameter. The leaves are
            sail-like shaped with long flat stems they have a tendency to tremble and flutter from
            even the slightest breeze</desc>
        <long>-79.984584</long>
        <lat>42.117249</lat>
        <elev>330.198395</elev>
    </entry>
    <entry num="58" tn="48">
        <cname>Douglas Fir</cname>
        <sname>Pseudotsuga menziesii</sname>
        <treeType>C</treeType>
        <desc>" This tree has long, flat, spirally arranged needles that grow directly from the
            branch and completely surround it. These trees can grow up to 250' in height and 6' in
            diameter. "</desc>
        <long>-79.983322</long>
        <lat>42.118812</lat>
        <elev>317.350861</elev>
    </entry>
    <entry num="60" tn="52">
        <cname>Thornless Honeylocust</cname>
        <sname>Gleditsia triacanthos</sname>
        <treeType>D</treeType>
        <desc>"This is a fast-growing tree with fragrant spring flowers. Its delicate, open
            silhouette lets grass grow underneath. Tiny leaflets turn yellow or yellow-green in
            fall. Grows to 30' to 70'."</desc>
        <long>-79.98218</long>
        <lat>42.12032</lat>
        <elev>307.770203</elev>
    </entry>
    <entry num="61" tn="62">
        <cname>Bitternut Hickory</cname>
        <sname>Carya cordiformis</sname>
        <treeType>D</treeType>
        <desc>"This tree has leaves that are 15"" long that turn bright yellow to brown in the fall.
            It grows about 160' in height. Nuts found on the tree have a bitter taste and are about
            an inch in length"</desc>
        <long>-79.983896</long>
        <lat>42.120776</lat>
        <elev>301.895721</elev>
    </entry>
    <entry num="62 (Multiple)" tn="66">
        <cname>American Elm</cname>
        <sname>Ulmus americana</sname>
        <treeType>D</treeType>
        <desc>"The leaves of American Elm are alternate, simple, and have doubly toothed margins.
            They are oval to elliptic and are 4 to 6 inches long. The tree grows 60 to 80'."</desc>
        <long>-79.983668</long>
        <lat>42.120582</lat>
        <elev>304.870911</elev>
    </entry>
    <entry num="63" tn="65">
        <cname>Atlantic White Cedar</cname>
        <sname>Thuja occidentalis</sname>
        <treeType>C</treeType>
        <desc>"This tree has bark that is pale brown, stringy and fibrous in appearance, sometimes
            shredding. It has fan-like branches and scaly leaves. This tree grows about 50'
            tall"</desc>
        <long>-79.984467</long>
        <lat>42.120324</lat>
        <elev>306.75705</elev>
    </entry>
    <entry num="64 (Multiple)" tn="N/A">
        <cname>American Elm 2</cname>
        <sname>Ulmus americana</sname>
        <treeType>D</treeType>
        <desc>Elm trees have oval-shaped leaves with saw-toothed edges and are pointy at the end.
            The tree can grow up to 80'. </desc>
        <long>-79.984236</long>
        <lat>42.120209</lat>
        <elev>308.47052</elev>
    </entry>
    <entry num="65" tn="33">
        <cname>Weeping Japanese Cherry</cname>
        <sname>Prunus subhirtella</sname>
        <treeType>D</treeType>
        <desc>This tree has slender and flexible branches that lead them to gracefully weep their
            long pink leaves. This tree grows 20 to 30' tall</desc>
        <long>-79.983862</long>
        <lat>42.119716</lat>
        <elev>322.048676</elev>
    </entry>
    <entry num="66 (Multiple)" tn="N/A">
        <cname>American Sweetgum 2</cname>
        <sname>Liquidambar styraciflua</sname>
        <treeType>D</treeType>
        <desc>"The fall leaves on this tree turn vibrant shades of yellow, orange, red and purple.
            Yields burr-like fruit that is approximately 1?"" in diameter. The tree grows 60 to
            75'."</desc>
        <long>-79.984231</long>
        <lat>42.119649</lat>
        <elev>321.064178</elev>
    </entry>
    <entry num="67 (Multiple)" tn="N/A">
        <cname>Blue Spruce</cname>
        <sname>Picea pugenus</sname>
        <treeType>D</treeType>
        <desc>This tree is conical-shaped with stiff horizontal branches and short stiff needles.
            The tree grows 50-75' in height</desc>
        <long>-79.984251</long>
        <lat>42.119556</lat>
        <elev>320.752716</elev>
    </entry>
    <entry num="68" tn="N/A">
        <cname>Japanese Red Maple</cname>
        <sname>Aceraceae</sname>
        <treeType>D</treeType>
        <desc>This tree can be a small tree or large shrub with a broadly spreading crown. The
            leaves stay a vibrant red all year long. The tree grows 15 to 25' tall</desc>
        <long>-79.984281</long>
        <lat>42.119412</lat>
        <elev>321.106476</elev>
    </entry>
    <entry num="69" tn="1">
        <cname>Kwanzan Cherry</cname>
        <sname>Cultivar</sname>
        <treeType>D</treeType>
        <desc>This cherry can grow 30-40'. It has very showy pink flowers that bloom in clusters of
            3-5 in April. </desc>
        <long>-79.985583</long>
        <lat>42.11935</lat>
        <elev>312.131378</elev>
    </entry>
    <entry num="70" tn="10">
        <cname>Yellowwood</cname>
        <sname>Cladrastis kentukea</sname>
        <treeType>D</treeType>
        <desc>"The yellowwood grows 30-50'. It has smooth bark, large hanging clusters of fragrant
            white flowers, and clear yellow fall color."</desc>
        <long>-79.985727</long>
        <lat>42.118683</lat>
        <elev>312.022369</elev>
    </entry>
    <entry num="71" tn="26">
        <cname>Ruby Horse Chestnut</cname>
        <sname>Aesculus carnea</sname>
        <treeType>D</treeType>
        <desc>"This tree is a clone of a hybrid horse chestnut, resulting from a cross between the
            European horse chestnut with white flowers and an eastern Nrth American native with red
            ones.ÊIt can grow 40-60'. It has gray-green bark and leaves which are dark green above
            and silvery below that turn bright yellow in fall. "</desc>
        <long>-79.985356</long>
        <lat>42.1198</lat>
        <elev>309.015381</elev>
    </entry>
    <entry num="72" tn="28">
        <cname>Japanese Umbrella Pine</cname>
        <sname>Sciadopitys verticillata</sname>
        <treeType>C</treeType>
        <desc>Japanese Umbrella Pine is named for its elegant shape and cascading green needles. It
            usually grows to 25' and is a slow grower. </desc>
        <long>-79.985481</long>
        <lat>42.119144</lat>
        <elev>311.633942</elev>
    </entry>
    <entry num="73" tn="30"><cname>Weeping White Pine</cname><sname>Pinus strobus
            'Pendula</sname><treeType>C</treeType>"This pine only grows to about 12'. Weeping white
        pine trees have smooth trunks covered with silvery-gray bark. As they age, the foliage
        covers the trunks all the way to the ground. The needles of a weeping white pine are
        evergreen and smell good. They are blue or blue-green.</entry>
    <entry>"<long>-79.981438</long><lat>42.120185</lat><elev>312.328979</elev></entry>
    <entry num="74" tn="39">
        <cname>Spanish Oak</cname>
        <sname>Quercus falcata</sname>
        <treeType>D</treeType>
        <desc>"This oak can grow to 90'. Bark is grayish-black, broken into deep grooves, becoming
            ridged and rough-plated near the base.. The leaves upper surface is dark green &amp;
            shiny while the lower surface is paler with light brown matted hairs. Leaves often droop
            and turn reddish-brown in fall."</desc>
        <long>-79.985275</long>
        <lat>42.118615</lat>
        <elev>314.037811</elev>
    </entry>
    <entry num="75" tn="40">
        <cname>Osage Orange</cname>
        <sname>Maclura pomifera</sname>
        <treeType>D</treeType>
        <desc>"The Osage Orange grows to be 30-50'. Leaf blades are dark green, smooth and waxy
            above; paler green with a few hairs beneath. The color turns translucent yellow in the
            fall. Large fruits appear on female trees. Its wood was once in demand for making hubs
            and wheel rims for horse drawn wagons. "</desc>
        <long>-79.985744</long>
        <lat>42.118417</lat>
        <elev>314.985504</elev>
    </entry>
    <entry num="76" tn="64"><cname>Korean Pine</cname><sname>Pinus
            koraiensis</sname><treeType>C</treeType>"Korean pine grows to mature heights of 100'. </entry>
    <entry>Bark is gray-brown and smooth, becoming gray-black, scaly, and peeling on larger
            trees."<long>-79.985286</long><lat>42.119057</lat><elev>310.888336</elev></entry>
    <entry num="77" tn="65">
        <cname>Blue Atlas Cedar</cname>
        <sname>Cedrus atlantica</sname>
        <treeType>C</treeType>
        <desc>This cedar is slow growing; reaches 40 to 60'. The evergreen needles are a light blue
            gray color. The Blue Atlas Cedar is native to the Atlas Mountains. </desc>
        <long>-79.984455</long>
        <lat>42.119336</lat>
        <elev>310.96759</elev>
    </entry>
    <entry num="78" tn="24">
        <cname>Paper Birch</cname>
        <sname>Betula papyrifera</sname>
        <treeType>D</treeType>
        <desc>The Paper Birch grows to a height of 50Ð70'. It develops a smooth white bark that
            curls and peels. The leaves turn bright yellow in the fall </desc>
        <long>-79.985286</long>
        <lat>42.119921</lat>
        <elev>309.498383</elev>
    </entry>
    <entry num="79" tn="N/A"><cname>White Spire Birch</cname><sname>Betula
            populifolia</sname><treeType>D</treeType>"This Birch has chalky white bark. It is </entry>
    <entry>fast growing to a height of 20-40' . It yeild shiny, dark green leaves that turn yellow
        in the fall.</entry>
    <entry>"<long>-79.985649</long><lat>42.119712</lat><elev>311.442627</elev></entry>
    <entry num="80" tn="N/A">
        <cname>Winter King Hawthorn</cname>
        <sname>Crataegus viridis</sname>
        <treeType>D</treeType>
        <desc>"This Hawthorn can grow 25-35'. Gray stems have glossy dark green leaves that turn
            purple to red in fall. Thorns can be present. Fragrant, 5-petaled, white flowers bloom
            in May. Flowers are followed by small red fruits that ripen in September and usually
            persist on the tree well into winter. The fruit is sometimes called a haw. "</desc>
        <long>-79.985365</long>
        <lat>42.119265</lat>
        <elev>311.656067</elev>
    </entry>


</btrees>
